"","site","latitude","longitude","easting","northing","region","rainfall_total","rainfall_total_avg_past5years","rainfall_total_medianhistoric","historic_ratio","summary_at"
"1","GW 2166 - Tui Close",-41.12075266,173.01484255,1601246.00023027,5447838.00041189,"nelsontasman",231.5,109.8384,113.88,2.03284158763611,"20220901T1615"
"2","GW 8110 - Weka Rd",-41.18628389,173.02592283,1602173.99997577,5440563.00005561,"nelsontasman",200,104.513529411765,114.13,1.75238762814335,"20220901T1615"
"3","HY Anatoki at Happy Sams",-40.88693155,172.74830592,1578796.00019249,5473763.99967267,"nelsontasman",1026.5,330.7853125,313.09,3.27860998434955,"20220901T1615"
"4","HY Anatoki at Paradise",-40.91106635,172.6177027,1567804.99987288,5471044.99989747,"nelsontasman",1341,551.984615384615,616.08,2.17666536813401,"20220901T1615"
"5","HY Aorere at Devils Boots",-40.74582036,172.62766457,1568565.99986127,5489392.00006313,"nelsontasman",601.83,250.440625,247.5,2.43163636363636,"20220901T1615"
"6","HY Aorere at Perry Saddle",-40.89514547,172.42941683,1551936.99964452,5472726.00012321,"nelsontasman",1098,493.922727272727,416.32,2.63739431206764,"20220901T1615"
"7","HY Aorere at Salisbury Br",-40.80248184,172.53289914,1560598.99960814,5483064.00026478,"nelsontasman",932.5,393.501666666667,340.655,2.73737358911509,"20220901T1615"
"8","HY Baton at Baton Flats",-41.31974937,172.72399398,1576900.00038296,5425710.0003619,"nelsontasman",184.5,155.774571428571,154.84,1.19155257039525,"20220901T1615"
"9","HY Brook at Third House",-41.32522478,173.32481811,1627182.99999262,5425087.99968989,"nelsontasman",799,177.708709677419,135.5,5.89667896678967,"20220901T1615"
"10","HY Buller at Longford",-41.76382361,172.3885712,1549176.00006055,5376265.00001659,"nelsontasman",225.5,141.299285714286,134.25,1.67970204841713,"20220901T1615"
"11","HY Collingwood at Repeater",-40.68401556,172.68320261,1573230.00027232,5496270.99954556,"nelsontasman",581.01,257.854545454545,213.87,2.71665030158508,"20220901T1615"
"12","HY Kainui Dam",-41.5108789,172.9542474,1596182.00033782,5404527.0000144,"nelsontasman",180.5,94.3722222222222,98.455,1.8333248692296,"20220901T1615"
"13","HY Lee at Trig F",-41.47918076,173.18828712,1615720.00009533,5408029.99980412,"nelsontasman",508.5,165.424117647059,151.55,3.35532827449687,"20220901T1615"
"14","HY Little Devil at Tarn",-40.98132244,172.65797463,1571226.99994536,5463259.99974976,"nelsontasman",887,333.527333333333,291,3.04810996563574,"20220901T1615"
"15","HY Maitai at Forks",-41.29309293,173.37000785,1630979.99961959,5428639.99945299,"nelsontasman",749,172.857142857143,138.55,5.40599061710574,"20220901T1615"
"16","HY Matakitaki at Horse Terrace Br",-42.00867992,172.35683832,1546742.0000138,5349059.99956322,"nelsontasman",278.5,182.7925,184.14,1.51243618985554,"20220901T1615"
"17","HY Motueka at Gorge",-41.63297696,172.91346089,1592792.00040098,5390968.99983397,"nelsontasman",163.5,112.138285714286,102.5,1.59512195121951,"20220901T1615"
"18","HY Motueka at Parker St",-41.10566512,172.9996189,1599968.00014723,5449512.99955609,"nelsontasman",233,139.042,121.28,1.92117414248021,"20220901T1615"
"19","HY Motueka at Red Hills",-41.70016099,173.03765387,1603133.0003336,5383513.00002761,"nelsontasman",250.5,103.218421052632,96.52,2.59531703273933,"20220901T1615"
"20","HY Motueka at Woodmans Bend",-41.12398843,172.95682822,1596375.99965035,5447477.99976986,"nelsontasman",249.21,132.812,136.17,1.83013879709187,"20220901T1615"
"21","HY Motueka at Woodstock",-41.25748375,172.82267643,1585145.00014952,5432643.99979522,"nelsontasman",190.08,137.098529411765,133.47,1.42414025623736,"20220901T1615"
"22","HY Motupiko at Christies",-41.61900492,172.80792179,1583997.9999364,5392505.99960006,"nelsontasman",177,108.248787878788,104.55,1.69296987087518,"20220901T1615"
"23","HY Motupipi at Reillys Bridge",-40.85607621,172.8316055,1585807.00027409,5477206.00034618,"nelsontasman",601,200.908125,192.18,3.1272765116037,"20220901T1615"
"24","HY Moutere at Kellings Rd",-41.25753005,173.00614754,1600514.99990673,5432654.00041794,"nelsontasman",185.5,101.219833333333,97.6,1.90061475409836,"20220901T1615"
"25","HY Nelson at Founders Park",-41.26167277,173.29556602,1624759.00014697,5432152.00023211,"nelsontasman",396.13,114.889,88.135,4.49458217507233,"20220901T1615"
"26","HY Nelson at Princes Dr",-41.28310651,173.2562315,1621457.0001364,5429782.99973666,"nelsontasman",335.73,99.0629411764706,95.56,3.51329007953118,"20220901T1615"
"27","HY Orphanage at Ngawhatu",-41.32394537,173.23181217,1619399.99994879,5425255.00049325,"nelsontasman",300.9,95.9126315789474,82,3.66951219512195,"20220901T1615"
"28","HY Richmond Weather at Race Course",-41.3273262,173.1854713,1615521.00034641,5424889.00002845,"nelsontasman",271.4,91.968125,73.06,3.71475499589379,"20220901T1615"
"29","HY Richmond Weather at TDC Roof",-41.34182694,173.18650448,1615604.00024751,5423279.00006531,"nelsontasman",277,92.0096428571429,81.5,3.39877300613497,"20220901T1615"
"30","HY Riwaka at Takaka Hill",-41.02675142,172.87713449,1589671.00040875,5458266.00027014,"nelsontasman",589.5,239.387441860465,222,2.65540540540541,"20220901T1615"
"31","HY Riwaka North at Littles",-41.03639187,172.90792962,1592261.00015207,5457199.000242,"nelsontasman",432.5,190.281111111111,189.36,2.28400929446557,"20220901T1615"
"32","HY Riwaka South at Moss Bush",-41.05259603,172.91781961,1593094.00013742,5455401.00050675,"nelsontasman",367,184.834590163934,177.04,2.07297785811116,"20220901T1615"
"33","HY Roding at Caretakers",-41.35673212,173.26180417,1621899.00004871,5421608.00009504,"nelsontasman",440,133.13253164557,114.25,3.85120350109409,"20220901T1615"
"34","HY Tadmor at Mudstone",-41.45071299,172.73628589,1577973.0001952,5411173.99996066,"nelsontasman",159.5,110.844782608696,110.095,1.44874880784777,"20220901T1615"
"35","HY Takaka at Canaan",-40.93986863,172.90820634,1592273.00037921,5467913.99985066,"nelsontasman",960.5,350.134827586207,326.45,2.9422576198499,"20220901T1615"
"36","HY Takaka at Harwoods",-41.02973014,172.79824836,1583039.99976497,5457923.00041379,"nelsontasman",645.71,237.586285714286,215.5,2.99633410672854,"20220901T1615"
"37","HY Takaka at Kotinga",-40.87045465,172.80908077,1583911.99959386,5475605.99962929,"nelsontasman",751.5,201.473870967742,177.54,4.23284893545117,"20220901T1615"
"38","HY Tapawera at WWTP",-41.38490989,172.81869477,1584840.99975892,5418497.00036123,"nelsontasman",121.74,121.74,121.74,1,"20220901T1615"
"39","HY Wai-iti at Belgrove",-41.45536724,172.95803403,1596495.00005276,5410690.00020855,"nelsontasman",177,99.7029032258065,102.88,1.72045101088647,"20220901T1615"
"40","HY Wai-iti at Birds",-41.42307963,173.06986475,1605838.00031925,5414273.00040631,"nelsontasman",192.5,96.7851219512195,96.68,1.99110467521721,"20220901T1615"
"41","HY Waimea at TDC Nursery",-41.31367862,173.12623421,1610566.00003528,5426413.00045514,"nelsontasman",201,86.6588888888889,81.745,2.4588659856872,"20220901T1615"
"42","HY Waingaro at Hanging Rock",-40.94025713,172.75064585,1579010.00039466,5467844.99954353,"nelsontasman",749.5,308.470285714286,283.81,2.64085127373947,"20220901T1615"
"43","HY Wairoa at Haycock Rd",-41.39193895,173.13283275,1611105.00025906,5417724.00010519,"nelsontasman",250.86,130.224,94.25,2.66164456233422,"20220901T1615"
"44","HY Wairoa at Little Ben",-41.4660541,173.09562148,1607985.00023483,5409499.99976141,"nelsontasman",286.5,103.504146341463,88.58,3.23436441634681,"20220901T1615"
"45","HY Wakapuaka at Fire Station",-41.21303746,173.39792321,1633358.0003633,5437516.99960034,"nelsontasman",610,186.90125,128.155,4.75986110569233,"20220901T1615"
"46","HY Wangapeka at Biggs Tops",-41.41733899,172.40002877,1549860.99996982,5414739.00047283,"nelsontasman",514.5,302.047941176471,307.83,1.6713770587662,"20220901T1615"
"47","HY Wangapeka at Walter Peak",-41.33998227,172.7653103,1580364.00002367,5423474.00022266,"nelsontasman",182.5,139.401428571429,142.29,1.28259188980252,"20220901T1615"
"48","Awatere at Awapiri",-41.83477611,173.73081669,1660681.00034428,5368310.00048842,"marlborough",64.5,69.9392307692308,59.5,1.08403361344538,"20220901T1615"
"49","Awatere Glenbrae NRFA",-41.65152277,174.05015719,1687444.99968608,5388380.99949193,"marlborough",57.4,45.6444444444444,50.8,1.12992125984252,"20220901T1615"
"50","Beneagle at Farm Stream",-41.58915653,173.9841186,1682024.99965165,5395369.99999684,"marlborough",87,68.5814285714286,60.36,1.44135188866799,"20220901T1615"
"51","Blenheim at MDC Office",-41.51167038,173.95492702,1679687.00001699,5404000.00050345,"marlborough",103.5,56.6896551724138,53,1.95283018867925,"20220901T1615"
"52","Branch at Branch Recorder",-41.70107442,173.18354863,1615271.99970437,5383395.99975944,"marlborough",271.5,104.629565217391,102.1,2.65915768854065,"20220901T1615"
"53","Flaxbourne at Corrie Downs",-41.80297379,174.13266349,1694093.99981284,5371478.9999959,"marlborough",63,71.736,57.5,1.09565217391304,"20220901T1615"
"54","Kaituna Rainfall at Higgins Bridge",-41.31103626,173.77418073,1664803.00040285,5426425.00008723,"marlborough",365,147.25,138.75,2.63063063063063,"20220901T1615"
"55","Kenepuru Head NRFA",-41.15792839,174.13257009,1695024.00018492,5443092.99993302,"marlborough",516.2,177.15,147.3,3.50441276306857,"20220901T1615"
"56","Koromiko NRFA",-41.34206742,173.96170794,1680462.00020181,5422823.00038853,"marlborough",286.8,157.2,135.1,2.12287194670614,"20220901T1615"
"57","Lansdowne NRFA",-41.58717814,173.53124809,1644279.99969604,5395921.00009484,"marlborough",239,91.0222222222222,89.8,2.66146993318486,"20220901T1615"
"58","Mid Awatere Valley NRFA",-41.8886627,173.62579244,1651917.00000722,5362396.00018869,"marlborough",77.6,63.5666666666667,74.1,1.0472334682861,"20220901T1615"
"59","Molesworth NRFA",-42.08543727,173.26000288,1621503.99984811,5340705.00016325,"marlborough",99.2,54.6,46.6,2.12875536480687,"20220901T1615"
"60","Omaka at Ramshead Saddle",-41.69689019,173.74738829,1662189.9997942,5383606.9996683,"marlborough",148.73,80.5759375,69.03,2.15457047660437,"20220901T1615"
"61","Onamalutu at Bartletts Creek Saddle",-41.48004061,173.64641151,1653967.99993151,5407749.99961724,"marlborough",449.99,162.420322580645,134.5,3.34565055762082,"20220901T1615"
"62","Onamalutu at Hilltop Road NRFA",-41.44463953,173.72670928,1660704.99964852,5411627.00020493,"marlborough",447.6,174.525,180.45,2.48046550290939,"20220901T1615"
"63","Pudding Hill NRFA",-42.21119707,173.07002393,1605779.99987428,5326772.00054466,"marlborough",124,57.52,48.2,2.57261410788382,"20220901T1615"
"64","Rai at Rai Falls",-41.28420906,173.57471142,1648126.0002708,5429533.00055143,"marlborough",912.45,210.040454545455,148,6.1652027027027,"20220901T1615"
"65","Rai Valley NRFA",-41.21450897,173.62446543,1652347.9995907,5437242.00035474,"marlborough",735.2,234.26,185,3.97405405405405,"20220901T1615"
"66","Rarangi at Driving Range",-41.40265282,174.04127111,1687038.00016413,5416020.00006937,"marlborough",170,95.3815384615385,93.78,1.8127532522926,"20220901T1615"
"67","Red Hills",-41.70015196,173.03771395,1603137.99974516,5383514.00037847,"marlborough",250.5,93.1022222222222,95.5,2.62303664921466,"20220901T1615"
"68","St Arnaud NRFA",-41.80435253,172.8429533,1586953.9996068,5371934.00009066,"marlborough",199.4,117,147,1.35646258503401,"20220901T1615"
"69","Taylor at Taylor Pass Landfill",-41.56407676,173.93270765,1677769.99977907,5398202.0005419,"marlborough",109,68.9352941176471,55.59,1.96078431372549,"20220901T1615"
"70","Taylor at Tinpot",-41.62887685,173.88335201,1673580.99999981,5391050.99958108,"marlborough",125.08,92.7317647058824,75.5,1.65668874172185,"20220901T1615"
"71","Te Rapa",-41.88979678,174.08146118,1689718.99967724,5361894.00033519,"marlborough",81,82.4228571428571,78.25,1.03514376996805,"20220901T1615"
"72","Top Valley at Staircase Ridge",-41.56538793,173.37093347,1630927.99993752,5398409.9997548,"marlborough",430.13,147.500810810811,121.5,3.5401646090535,"20220901T1615"
"73","Tor Darroch NRFA",-41.70555339,173.50666814,1642154.00003042,5382791.00013327,"marlborough",163.8,92.9333333333333,85.4,1.91803278688525,"20220901T1615"
"74","Tunakino",-41.1561398,173.65494681,1654951.9997424,5443703.00016949,"marlborough",1238.8,244.179024390244,200.5,6.1785536159601,"20220901T1615"
"75","Upper Clarence NRFA",-42.21155973,173.41687461,1634410.00039787,5326650.00039829,"marlborough",34.2,43.1428571428571,34.2,1,"20220901T1615"
"76","Waihopai at Craiglochart",-41.62036754,173.68945125,1657436.99988482,5392143.00013274,"marlborough",114,62.4394285714286,46,2.47826086956522,"20220901T1615"
"77","Waihopai at Spray Confluence",-41.73038525,173.46861471,1638972.99974913,5380051.9997235,"marlborough",150.5,79.5742857142857,75,2.00666666666667,"20220901T1615"
"78","Waikakaho",-41.43138147,173.89755697,1674992.00037843,5412964.99945299,"marlborough",212.34,97.3576923076923,82,2.58951219512195,"20220901T1615"
"79","Waikawa at Boons Valley",-41.29837722,174.0437912,1687388.00021702,5427594.00052937,"marlborough",143,138.154444444444,132,1.08333333333333,"20220901T1615"
"80","Wairau at Narrows",-41.51603498,173.69715129,1658172.00000798,5403720.99949673,"marlborough",246,96.46,85,2.89411764705882,"20220901T1615"
"81","Wairau Valley at Southwold",-41.54499954,173.575624,1648010.00031744,5400580.00029278,"marlborough",249.5,93.7488118811881,85.1,2.93184488836663,"20220901T1615"
"82","Wakamarina at Twin Falls",-41.3298228,173.66212055,1655407.00023893,5424416.99949464,"marlborough",590.28,182.239375,160.45,3.67890308507323,"20220901T1615"
"83","Ward NRFA",-41.83861546,174.0772266,1689438.99986067,5367580.99986735,"marlborough",65,54.425,50.6,1.28458498023715,"20220901T1615"
"84","Wye at Charlies Rest",-41.70550427,173.31012606,1625802.00019197,5382873.99945477,"marlborough",197.02,80.5371111111111,74.5,2.64456375838926,"20220901T1615"
"85","Ahaura Rv @ Gorge WCRC",-42.43452185,171.7306149,1495590.00027764,5301196.99951559,"westcoast",234.5,141.030476190476,155.5,1.508038585209,"20220901T1615"
"86","Arnold Rv @ Moana",-42.57714236,171.479685,1475234.00020359,5285020.99946149,"westcoast",369.5,209.782222222222,218.75,1.68914285714286,"20220901T1615"
"87","Buller Rv @ Bald Hill",-41.80666803,171.57903321,1481961.99992449,5370713.00047334,"westcoast",373.5,288.875,294,1.27040816326531,"20220901T1615"
"88","Buller Rv @ Three Channel Flat",-41.85119853,171.98310787,1515587.0000385,5366245.00046609,"westcoast",299.5,231.68,241.11,1.2421716229107,"20220901T1615"
"89","Grey Rv @ Conical Hill new",-42.36780072,171.9951347,1517259.9997401,5308897.00011533,"westcoast",177.5,170.5,159.5,1.1128526645768,"20220901T1615"
"90","Grey Rv @ Haupiri",-42.59546333,171.72344047,1495268.99991864,5283317.00030224,"westcoast",350.5,299.135,308.75,1.13522267206478,"20220901T1615"
"91","Grey Rv @ Ngahere",-42.39638682,171.4372183,1471378.99988192,5305028.99988649,"westcoast",368.5,291.375,294.25,1.25233644859813,"20220901T1615"
"92","Grey Rv @ WCRC Office2",-42.49880151,171.17315402,1449890.00033893,5293223.00020702,"westcoast",319,274.5,287,1.11149825783972,"20220901T1615"
"93","Haast Rv @ Deelaw",-43.89998075,169.14675768,1290542.00006608,5132015.00002313,"westcoast",663.38,471.34,443.24,1.49666095117769,"20220901T1615"
"94","Haast Rv @ Roaring Billy WCRC",-43.94249579,169.29806163,1302905.99980475,5127849.00043909,"westcoast",766.23,530.1525,482.19,1.58906240278728,"20220901T1615"
"95","Hokitika Rv @ Colliers Ck",-42.98914446,170.9949069,1436537.00026185,5238439.99961704,"westcoast",1222.24,751.335,648,1.88617283950617,"20220901T1615"
"96","Hokitika Rv @ Gorge WCRC",-42.95530492,171.02078228,1438557.99978904,5242247.99985215,"westcoast",859.06,563.8825,492.5,1.74428426395939,"20220901T1615"
"97","Inangahua Rv @ Landing",-41.91135934,171.89402319,1508278.00039882,5359474.00029339,"westcoast",356.5,269.875,300.25,1.18734388009992,"20220901T1615"
"98","Karamea Rv @ Garibaldi",-41.23477402,172.41271509,1550783.99985464,5435014.00040059,"westcoast",403.5,476.75,412.25,0.978775015160703,"20220901T1615"
"99","Karamea Rv @ Township",-41.24518178,172.13004649,1527107.00009861,5433660.00005989,"westcoast",248,226.125,238.5,1.0398322851153,"20220901T1615"
"100","Maruia Rv @ Springs Junction",-42.3340597,172.18017381,1532460.00030362,5312806.9998212,"westcoast",279,235.375,261.25,1.06794258373206,"20220901T1615"
"101","Mawheraiti Rv @ Atarau Br",-42.27241154,171.66909483,1490247.99983837,5319119.99944583,"westcoast",143.33,194.3325,154.915,0.925217054513766,"20220901T1615"
"102","Mokihinui Rv @ Stoney Ck",-41.57110997,172.25056099,1537517.99978653,5397570.00023345,"westcoast",644.5,486.375,521,1.23704414587332,"20220901T1615"
"103","Orikaka Rv @ Plateau Stm",-41.7236643,171.93663422,1511554.00032764,5380357.99971899,"westcoast",808.5,484.6225,457.5,1.7672131147541,"20220901T1615"
"104","Reefton @ Township",-42.11569947,171.860115,1505768.00004729,5336748.99968822,"westcoast",276,206.25,218.75,1.26171428571429,"20220901T1615"
"105","Ross @ Township",-42.9003443,170.82128998,1422127.00037543,5247949.00032053,"westcoast",528.5,377.625,349,1.51432664756447,"20220901T1615"
"106","Sirdar Ck @ Paparoa",-42.03307846,171.57654935,1482172.99971009,5345570.99952354,"westcoast",693,582.875,588.5,1.17757009345794,"20220901T1615"
"107","Styx Rv @ Mt Browning new",-42.90736017,171.29953093,1461187.99967079,5248070.00018409,"westcoast",1177.34,766.4625,692.755,1.69950415370513,"20220901T1615"
"108","Waiho Rv @ SH6",-43.39380089,170.18003091,1371617.00035479,5191590.00039056,"westcoast",715.98,475.37,420.75,1.70167557932264,"20220901T1615"
